$GPRMC,233625.800,A,4234.2484,N,08340.4118,W,0.01,184.87,230617,,,D*78
$GPRMC,233626.000,A,4234.2484,N,08340.4118,W,0.00,181.25,230617,,,D*7F
$GPRMC,233626.200,A,4234.2484,N,08340.4118,W,0.00,206.17,230617,,,D*70
$GPRMC,233626.400,A,4234.2484,N,08340.4118,W,0.00,97.98,230617,,,D*4B
$GPRMC,233626.600,A,4234.2484,N,08340.4118,W,0.00,67.01,230617,,,D*46
$GPRMC,233626.800,A,4234.2484,N,08340.4118,W,0.00,49.21,230617,,,D*46
$GPRMC,233627.000,A,4234.2484,N,08340.4118,W,0.01,49.73,230617,,,D*49
$GPRMC,233627.200,A,4234.2484,N,08340.4118,W,0.01,319.47,230617,,,D*7A
$GPRMC,233627.400,A,4234.2484,N,08340.4118,W,0.01,51.52,230617,,,D*47
$GPRMC,233627.600,A,4234.2484,N,08340.4118,W,0.00,1.55,230617,,,D*76
$GPRMC,233627.800,A,4234.2484,N,08340.4118,W,0.01,359.15,230617,,,D*73
$GPRMC,233628.000,A,4234.2484,N,08340.4118,W,0.01,13.97,230617,,,D*43
$GPRMC,233628.200,A,4234.2484,N,08340.4118,W,0.01,16.32,230617,,,D*4B
$GPRMC,233628.400,A,4234.2484,N,08340.4118,W,0.00,90.74,230617,,,D*40
$GPRMC,233628.600,A,4234.2484,N,08340.4118,W,0.00,16.63,230617,,,D*4A
$GPRMC,233628.800,A,4234.2484,N,08340.4118,W,0.00,80.09,230617,,,D*47
$GPRMC,233629.000,A,4234.2484,N,08340.4118,W,0.00,291.88,230617,,,D*75
$GPRMC,233629.200,A,4234.2484,N,08340.4118,W,0.01,26.88,230617,,,D*48
$GPRMC,233629.400,A,4234.2484,N,08340.4118,W,0.01,32.25,230617,,,D*4C
$GPRMC,233629.600,A,4234.2484,N,08340.4118,W,0.01,45.03,230617,,,D*4A
$GPRMC,233629.800,A,4234.2484,N,08340.4118,W,0.01,31.64,230617,,,D*46
$GPRMC,233630.000,A,4234.2484,N,08340.4118,W,0.00,347.32,230617,,,D*76
$GPRMC,233630.200,A,4234.2484,N,08340.4118,W,0.00,40.57,230617,,,D*43
$GPRMC,233630.400,A,4234.2484,N,08340.4118,W,0.00,48.98,230617,,,D*4E
$GPRMC,233630.600,A,4234.2484,N,08340.4118,W,0.01,18.60,230617,,,D*4F
$GPRMC,233630.800,A,4234.2484,N,08340.4118,W,0.01,60.06,230617,,,D*4E
$GPRMC,233631.000,A,4234.2484,N,08340.4118,W,0.01,22.57,230617,,,D*45
$GPRMC,233631.200,A,4234.2484,N,08340.4118,W,0.00,18.06,230617,,,D*4B
$GPRMC,233631.400,A,4234.2484,N,08340.4118,W,0.00,41.49,230617,,,D*4A
$GPRMC,233631.600,A,4234.2484,N,08340.4118,W,0.01,33.92,230617,,,D*4A
$GPRMC,233631.800,A,4234.2484,N,08340.4118,W,0.00,38.58,230617,,,D*48
$GPRMC,233632.000,A,4234.2484,N,08340.4118,W,0.01,320.59,230617,,,D*79
$GPRMC,233632.200,A,4234.2484,N,08340.4118,W,0.01,82.27,230617,,,D*49
$GPRMC,233632.400,A,4234.2484,N,08340.4118,W,0.01,232.90,230617,,,D*7A
$GPRMC,233632.600,A,4234.2484,N,08340.4118,W,0.00,99.82,230617,,,D*49
$GPRMC,233632.800,A,4234.2484,N,08340.4118,W,0.01,262.91,230617,,,D*72
$GPRMC,233633.000,A,4234.2484,N,08340.4118,W,0.00,206.73,230617,,,D*74
$GPRMC,233633.200,A,4234.2484,N,08340.4118,W,0.00,255.90,230617,,,D*7D
$GPRMC,233633.400,A,4234.2484,N,08340.4118,W,0.01,212.79,230617,,,D*7E
$GPRMC,233633.600,A,4234.2484,N,08340.4118,W,0.01,223.47,230617,,,D*73
$GPRMC,233633.800,A,4234.2484,N,08340.4118,W,0.00,210.24,230617,,,D*79
$GPRMC,233634.000,A,4234.2484,N,08340.4118,W,0.00,242.71,230617,,,D*71
$GPRMC,233634.200,A,4234.2484,N,08340.4118,W,0.01,217.64,230617,,,D*76
$GPRMC,233634.400,A,4234.2484,N,08340.4118,W,0.01,170.07,230617,,,D*77
$GPRMC,233634.600,A,4234.2484,N,08340.4118,W,0.01,280.56,230617,,,D*7D
$GPRMC,233634.800,A,4234.2484,N,08340.4118,W,0.00,0.00,230617,,,D*7B
$GPRMC,233635.000,A,4234.2484,N,08340.4118,W,0.01,11.65,230617,,,D*40
$GPRMC,233635.200,A,4234.2484,N,08340.4118,W,0.04,14.73,230617,,,D*45
$GPRMC,233635.400,A,4234.2484,N,08340.4118,W,0.07,17.99,230617,,,D*47
$GPRMC,233635.600,A,4234.2484,N,08340.4118,W,0.08,30.43,230617,,,D*48
$GPRMC,233635.800,A,4234.2484,N,08340.4118,W,0.09,34.78,230617,,,D*4B
$GPRMC,233636.000,A,4234.2484,N,08340.4118,W,1.05,39.01,230617,,,D*4E
$GPRMC,233636.200,A,4234.2485,N,08340.4117,W,2.49,39.06,230617,,,D*4E
$GPRMC,233636.400,A,4234.2487,N,08340.4116,W,3.29,36.28,230617,,,D*4F
$GPRMC,233636.600,A,4234.2488,N,08340.4114,W,3.87,41.23,230617,,,D*4F
$GPRMC,233636.800,A,4234.2490,N,08340.4112,W,4.48,45.44,230617,,,D*4F
$GPRMC,233637.000,A,4234.2492,N,08340.4110,W,5.05,50.00,230617,,,D*4A
$GPRMC,233637.200,A,4234.2493,N,08340.4106,W,5.57,59.63,230617,,,D*45
$GPRMC,233637.400,A,4234.2494,N,08340.4103,W,5.75,66.27,230617,,,D*4D
$GPRMC,233637.600,A,4234.2495,N,08340.4099,W,5.78,70.96,230617,,,D*4C
$GPRMC,233637.800,A,4234.2496,N,08340.4094,W,6.01,80.26,230617,,,D*45
$GPRMC,233638.000,A,4234.2496,N,08340.4090,W,5.98,88.94,230617,,,D*44
$GPRMC,233638.200,A,4234.2496,N,08340.4085,W,6.25,95.85,230617,,,D*4B
$GPRMC,233638.400,A,4234.2495,N,08340.4080,W,6.31,105.88,230617,,,D*7B
$GPRMC,233638.600,A,4234.2494,N,08340.4075,W,6.60,111.21,230617,,,D*70
$GPRMC,233638.800,A,4234.2492,N,08340.4070,W,7.21,118.12,230617,,,D*70
$GPRMC,233639.000,A,4234.2490,N,08340.4066,W,7.45,121.37,230617,,,D*73
$GPRMC,233639.200,A,4234.2487,N,08340.4061,W,7.99,121.61,230617,,,D*72
$GPRMC,233639.400,A,4234.2484,N,08340.4055,W,9.02,125.92,230617,,,D*74
$GPRMC,233639.600,A,4234.2481,N,08340.4049,W,9.65,130.62,230617,,,D*74
$GPRMC,233639.800,A,4234.2476,N,08340.4044,W,10.06,137.03,230617,,,D*42
$GPRMC,233640.000,A,4234.2472,N,08340.4039,W,10.27,142.51,230617,,,D*4C
$GPRMC,233640.200,A,4234.2466,N,08340.4035,W,11.23,149.95,230617,,,D*41
$GPRMC,233640.400,A,4234.2459,N,08340.4030,W,12.53,155.53,230617,,,D*4D
$GPRMC,233640.600,A,4234.2452,N,08340.4026,W,13.53,159.33,230617,,,D*48
$GPRMC,233640.800,A,4234.2444,N,08340.4022,W,14.50,161.42,230617,,,D*4C
$GPRMC,233641.000,A,4234.2436,N,08340.4019,W,15.07,163.92,230617,,,D*44
$GPRMC,233641.200,A,4234.2427,N,08340.4016,W,16.22,165.78,230617,,,D*4F
$GPRMC,233641.400,A,4234.2417,N,08340.4013,W,17.34,167.75,230617,,,D*46
$GPRMC,233641.600,A,4234.2407,N,08340.4011,W,18.42,169.00,230617,,,D*45
$GPRMC,233641.800,A,4234.2396,N,08340.4008,W,19.57,170.97,230617,,,D*4F
$GPRMC,233642.000,A,4234.2385,N,08340.4006,W,20.32,171.48,230617,,,D*42
$GPRMC,233642.200,A,4234.2373,N,08340.4004,W,21.43,172.79,230617,,,D*4D
$GPRMC,233642.400,A,4234.2360,N,08340.4002,W,22.72,173.88,230617,,,D*41
$GPRMC,233642.600,A,4234.2347,N,08340.4001,W,23.41,175.21,230617,,,D*41
$GPRMC,233642.800,A,4234.2333,N,08340.3999,W,24.50,175.65,230617,,,D*44
$GPRMC,233643.000,A,4234.2319,N,08340.3998,W,25.42,176.41,230617,,,D*43
$GPRMC,233643.200,A,4234.2304,N,08340.3997,W,26.51,176.81,230617,,,D*4F
$GPRMC,233643.400,A,4234.2289,N,08340.3996,W,27.42,177.15,230617,,,D*43
$GPRMC,233643.600,A,4234.2273,N,08340.3994,W,28.68,177.01,230617,,,D*44
$GPRMC,233643.800,A,4234.2256,N,08340.3993,W,29.43,176.91,230617,,,D*4A
$GPRMC,233644.000,A,4234.2239,N,08340.3992,W,30.20,177.30,230617,,,D*4A
$GPRMC,233644.200,A,4234.2222,N,08340.3990,W,31.11,177.42,230617,,,D*46
$GPRMC,233644.400,A,4234.2204,N,08340.3989,W,31.59,177.64,230617,,,D*44
$GPRMC,233644.600,A,4234.2186,N,08340.3988,W,31.96,177.47,230617,,,D*4C
$GPRMC,233644.800,A,4234.2168,N,08340.3987,W,31.99,177.12,230617,,,D*42
$GPRMC,233645.000,A,4234.2150,N,08340.3986,W,31.82,177.12,230617,,,D*4B
$GPRMC,233645.200,A,4234.2133,N,08340.3985,W,31.75,176.93,230617,,,D*4F
$GPRMC,233645.400,A,4234.2115,N,08340.3983,W,31.70,176.74,230617,,,D*47
$GPRMC,233645.600,A,4234.2097,N,08340.3982,W,31.40,176.66,230617,,,D*4F
$GPRMC,233645.800,A,4234.2080,N,08340.3980,W,31.46,176.22,230617,,,D*43
$GPRMC,233646.000,A,4234.2062,N,08340.3979,W,30.53,176.57,230617,,,D*45
$GPRMC,233646.200,A,4234.2045,N,08340.3977,W,30.13,176.22,230617,,,D*4A
$GPRMC,233646.400,A,4234.2029,N,08340.3976,W,29.48,176.04,230617,,,D*45
$GPRMC,233646.600,A,4234.2012,N,08340.3974,W,28.68,176.56,230617,,,D*49
$GPRMC,233646.800,A,4234.1996,N,08340.3973,W,27.76,176.56,230617,,,D*46
$GPRMC,233647.000,A,4234.1981,N,08340.3972,W,26.86,176.42,230617,,,D*43
$GPRMC,233647.200,A,4234.1966,N,08340.3971,W,25.95,176.47,230617,,,D*4F
$GPRMC,233647.400,A,4234.1952,N,08340.3969,W,24.99,176.40,230617,,,D*4D
$GPRMC,233647.600,A,4234.1938,N,08340.3968,W,24.13,176.81,230617,,,D*4D
$GPRMC,233647.800,A,4234.1925,N,08340.3967,W,23.25,177.08,230617,,,D*42
$GPRMC,233648.000,A,4234.1912,N,08340.3967,W,22.43,177.84,230617,,,D*44
$GPRMC,233648.200,A,4234.1900,N,08340.3967,W,21.58,179.19,230617,,,D*46
$GPRMC,233648.400,A,4234.1888,N,08340.3967,W,21.13,180.70,230617,,,D*47
$GPRMC,233648.600,A,4234.1876,N,08340.3968,W,20.89,182.97,230617,,,D*42
$GPRMC,233648.800,A,4234.1864,N,08340.3969,W,20.96,186.06,230617,,,D*4C
$GPRMC,233649.000,A,4234.1853,N,08340.3971,W,20.93,189.21,230617,,,D*47
$GPRMC,233649.200,A,4234.1841,N,08340.3975,W,20.64,192.72,230617,,,D*46
$GPRMC,233649.400,A,4234.1830,N,08340.3979,W,20.71,196.14,230617,,,D*4A
$GPRMC,233649.600,A,4234.1820,N,08340.3984,W,20.75,200.05,230617,,,D*43
$GPRMC,233649.800,A,4234.1809,N,08340.3990,W,20.93,202.75,230617,,,D*4E
$GPRMC,233650.000,A,4234.1799,N,08340.3997,W,20.90,205.70,230617,,,D*4E
$GPRMC,233650.200,A,4234.1788,N,08340.4004,W,21.13,208.50,230617,,,D*4D
$GPRMC,233650.400,A,4234.1778,N,08340.4012,W,21.38,210.16,230617,,,D*41
$GPRMC,233650.600,A,4234.1768,N,08340.4021,W,21.45,210.82,230617,,,D*45
$GPRMC,233650.800,A,4234.1758,N,08340.4029,W,21.50,211.69,230617,,,D*40
$GPRMC,233651.000,A,4234.1748,N,08340.4038,W,21.54,211.21,230617,,,D*40
$GPRMC,233651.200,A,4234.1738,N,08340.4046,W,21.56,210.02,230617,,,D*4E
$GPRMC,233651.400,A,4234.1727,N,08340.4055,W,21.53,208.88,230617,,,D*4A
$GPRMC,233651.600,A,4234.1717,N,08340.4062,W,21.55,207.78,230617,,,D*49
$GPRMC,233651.800,A,4234.1706,N,08340.4070,W,21.53,205.81,230617,,,D*46
$GPRMC,233652.000,A,4234.1695,N,08340.4076,W,21.52,203.59,230617,,,D*42
$GPRMC,233652.200,A,4234.1684,N,08340.4082,W,21.48,201.39,230617,,,D*44
$GPRMC,233652.400,A,4234.1673,N,08340.4088,W,21.46,198.00,230617,,,D*47
$GPRMC,233652.600,A,4234.1661,N,08340.4092,W,21.25,195.31,230617,,,D*47
$GPRMC,233652.800,A,4234.1650,N,08340.4096,W,21.25,192.01,230617,,,D*4B
$GPRMC,233653.000,A,4234.1638,N,08340.4099,W,20.96,189.22,230617,,,D*41
$GPRMC,233653.200,A,4234.1627,N,08340.4101,W,20.48,185.82,230617,,,D*48
$GPRMC,233653.400,A,4234.1616,N,08340.4102,W,19.89,183.44,230617,,,D*44
$GPRMC,233653.600,A,4234.1605,N,08340.4102,W,19.84,180.93,230617,,,D*40
$GPRMC,233653.800,A,4234.1593,N,08340.4101,W,19.60,176.65,230617,,,D*4B
$GPRMC,233654.000,A,4234.1582,N,08340.4099,W,19.66,171.69,230617,,,D*49
$GPRMC,233654.200,A,4234.1570,N,08340.4095,W,20.33,167.51,230617,,,D*4C
$GPRMC,233654.400,A,4234.1559,N,08340.4091,W,20.59,162.77,230617,,,D*48
$GPRMC,233654.600,A,4234.1548,N,08340.4085,W,20.83,159.80,230617,,,D*48
$GPRMC,233654.800,A,4234.1537,N,08340.4079,W,20.80,156.21,230617,,,D*4A
$GPRMC,233655.000,A,4234.1527,N,08340.4072,W,20.46,152.32,230617,,,D*45
$GPRMC,233655.200,A,4234.1518,N,08340.4063,W,20.50,147.45,230617,,,D*48
$GPRMC,233655.400,A,4234.1509,N,08340.4053,W,20.33,141.45,230617,,,D*4E
$GPRMC,233655.600,A,4234.1501,N,08340.4042,W,19.86,136.84,230617,,,D*4D
$GPRMC,233655.800,A,4234.1494,N,08340.4031,W,20.37,134.46,230617,,,D*46
$GPRMC,233656.000,A,4234.1486,N,08340.4020,W,20.66,132.33,230617,,,D*4E
$GPRMC,233656.200,A,4234.1479,N,08340.4008,W,20.87,131.01,230617,,,D*4B
$GPRMC,233656.400,A,4234.1471,N,08340.3996,W,20.84,130.02,230617,,,D*4D
$GPRMC,233656.600,A,4234.1469,N,08340.3978,W,21.95,114.14,230617,,,D*46
$GPRMC,233656.800,A,4234.1467,N,08340.3960,W,22.66,106.43,230617,,,D*41
$GPRMC,233657.000,A,4234.1465,N,08340.3942,W,22.85,102.07,230617,,,D*43
$GPRMC,233657.200,A,4234.1463,N,08340.3925,W,22.83,99.19,230617,,,D*7C
$GPRMC,233657.400,A,4234.1464,N,08340.3907,W,23.05,92.39,230617,,,D*7B
$GPRMC,233657.600,A,4234.1466,N,08340.3888,W,24.01,85.72,230617,,,D*77
$GPRMC,233657.800,A,4234.1468,N,08340.3870,W,24.44,80.98,230617,,,D*70
$GPRMC,233658.000,A,4234.1471,N,08340.3852,W,24.45,78.33,230617,,,D*78
$GPRMC,233658.200,A,4234.1476,N,08340.3834,W,25.02,73.44,230617,,,D*74
$GPRMC,233658.400,A,4234.1481,N,08340.3815,W,25.65,70.01,230617,,,D*7A
$GPRMC,233658.600,A,4234.1487,N,08340.3797,W,26.09,66.59,230617,,,D*78
$GPRMC,233658.800,A,4234.1493,N,08340.3779,W,26.37,65.33,230617,,,D*71
$GPRMC,233659.000,A,4234.1499,N,08340.3761,W,26.73,66.39,230617,,,D*72
$GPRMC,233659.200,A,4234.1505,N,08340.3741,W,27.38,67.67,230617,,,D*72
$GPRMC,233659.400,A,4234.1510,N,08340.3722,W,27.82,69.47,230617,,,D*78
$GPRMC,233659.600,A,4234.1515,N,08340.3701,W,28.15,72.13,230617,,,D*74
$GPRMC,233659.800,A,4234.1520,N,08340.3680,W,28.64,75.37,230617,,,D*73
$GPRMC,233700.000,A,4234.1524,N,08340.3658,W,29.04,76.92,230617,,,D*7C
$GPRMC,233700.200,A,4234.1527,N,08340.3637,W,29.07,79.05,230617,,,D*76
$GPRMC,233700.400,A,4234.1530,N,08340.3615,W,29.37,79.58,230617,,,D*7D
$GPRMC,233700.600,A,4234.1533,N,08340.3593,W,29.20,80.69,230617,,,D*73
$GPRMC,233700.800,A,4234.1535,N,08340.3571,W,29.25,82.14,230617,,,D*7A
$GPRMC,233701.000,A,4234.1537,N,08340.3549,W,29.28,82.71,230617,,,D*74
$GPRMC,233701.200,A,4234.1538,N,08340.3527,W,29.27,84.25,230617,,,D*79
$GPRMC,233701.400,A,4234.1539,N,08340.3505,W,29.22,85.95,230617,,,D*71
$GPRMC,233701.600,A,4234.1539,N,08340.3483,W,29.29,87.44,230617,,,D*79
$GPRMC,233701.800,A,4234.1539,N,08340.3460,W,29.78,89.08,230617,,,D*78
$GPRMC,233702.000,A,4234.1538,N,08340.3436,W,29.58,90.32,230617,,,D*72
$GPRMC,233702.200,A,4234.1537,N,08340.3412,W,30.81,91.31,230617,,,D*77
$GPRMC,233702.400,A,4234.1534,N,08340.3386,W,31.87,93.84,230617,,,D*73
$GPRMC,233702.600,A,4234.1532,N,08340.3362,W,32.25,94.79,230617,,,D*73
$GPRMC,233702.800,A,4234.1529,N,08340.3336,W,32.59,95.68,230617,,,D*7C
$GPRMC,233703.000,A,4234.1527,N,08340.3312,W,32.83,96.04,230617,,,D*73
$GPRMC,233703.200,A,4234.1525,N,08340.3287,W,33.19,96.74,230617,,,D*7B
$GPRMC,233703.400,A,4234.1522,N,08340.3263,W,33.12,97.59,230617,,,D*75
$GPRMC,233703.600,A,4234.1519,N,08340.3238,W,32.88,97.96,230617,,,D*70
$GPRMC,233703.800,A,4234.1517,N,08340.3214,W,32.66,98.18,230617,,,D*77
$GPRMC,233704.000,A,4234.1514,N,08340.3189,W,32.66,98.72,230617,,,D*70
$GPRMC,233704.200,A,4234.1511,N,08340.3165,W,32.66,98.55,230617,,,D*70
$GPRMC,233704.400,A,4234.1509,N,08340.3140,W,32.97,98.49,230617,,,D*7B
$GPRMC,233704.600,A,4234.1506,N,08340.3115,W,33.05,98.37,230617,,,D*75
$GPRMC,233704.800,A,4234.1503,N,08340.3090,W,33.06,98.20,230617,,,D*77
$GPRMC,233705.000,A,4234.1501,N,08340.3065,W,33.06,97.89,230617,,,D*7A
$GPRMC,233705.200,A,4234.1498,N,08340.3040,W,33.12,97.77,230617,,,D*7A
$GPRMC,233705.400,A,4234.1496,N,08340.3015,W,33.10,97.57,230617,,,D*72
$GPRMC,233705.600,A,4234.1494,N,08340.2990,W,32.29,96.95,230617,,,D*73
$GPRMC,233705.800,A,4234.1492,N,08340.2966,W,32.11,96.53,230617,,,D*73
$GPRMC,233706.000,A,4234.1490,N,08340.2941,W,32.13,96.39,230617,,,D*71
$GPRMC,233706.200,A,4234.1488,N,08340.2916,W,32.10,95.54,230617,,,D*73
$GPRMC,233706.400,A,4234.1486,N,08340.2892,W,32.10,95.04,230617,,,D*73
$GPRMC,233706.600,A,4234.1485,N,08340.2867,W,32.08,94.38,230617,,,D*7F
$GPRMC,233706.800,A,4234.1483,N,08340.2843,W,32.44,93.86,230617,,,D*7B
$GPRMC,233707.000,A,4234.1482,N,08340.2818,W,32.44,92.87,230617,,,D*7D
$GPRMC,233707.200,A,4234.1481,N,08340.2793,W,32.37,91.89,230617,,,D*79
$GPRMC,233707.400,A,4234.1480,N,08340.2768,W,32.33,90.87,230617,,,D*71
$GPRMC,233707.600,A,4234.1479,N,08340.2744,W,32.36,90.99,230617,,,D*71
$GPRMC,233707.800,A,4234.1479,N,08340.2718,W,32.32,90.68,230617,,,D*7C
$GPRMC,233708.000,A,4234.1478,N,08340.2693,W,32.29,90.65,230617,,,D*7F
$GPRMC,233708.200,A,4234.1478,N,08340.2669,W,32.29,90.65,230617,,,D*78
$GPRMC,233708.400,A,4234.1477,N,08340.2644,W,32.28,90.65,230617,,,D*7F
$GPRMC,233708.600,A,4234.1477,N,08340.2619,W,32.28,90.44,230617,,,D*76
$GPRMC,233708.800,A,4234.1476,N,08340.2594,W,32.28,90.41,230617,,,D*7A
$GPRMC,233709.000,A,4234.1476,N,08340.2569,W,32.30,89.97,230617,,,D*7B
$GPRMC,233709.200,A,4234.1476,N,08340.2544,W,32.31,89.92,230617,,,D*72
$GPRMC,233709.400,A,4234.1476,N,08340.2519,W,32.31,89.66,230617,,,D*77
$GPRMC,233709.600,A,4234.1476,N,08340.2494,W,32.30,89.44,230617,,,D*70
$GPRMC,233709.800,A,4234.1476,N,08340.2469,W,32.27,89.67,230617,,,D*7B
$GPRMC,233710.000,A,4234.1476,N,08340.2445,W,32.24,89.68,230617,,,D*79
$GPRMC,233710.200,A,4234.1476,N,08340.2420,W,31.98,89.73,230617,,,D*76
$GPRMC,233710.400,A,4234.1476,N,08340.2395,W,31.93,90.17,230617,,,D*78
$GPRMC,233710.600,A,4234.1476,N,08340.2371,W,31.94,90.30,230617,,,D*72
$GPRMC,233710.800,A,4234.1476,N,08340.2347,W,31.85,90.13,230617,,,D*78
$GPRMC,233711.000,A,4234.1476,N,08340.2322,W,31.03,90.26,230617,,,D*7A
$GPRMC,233711.200,A,4234.1475,N,08340.2299,W,31.31,90.19,230617,,,D*77
$GPRMC,233711.400,A,4234.1475,N,08340.2276,W,29.92,90.07,230617,,,D*7F
$GPRMC,233711.600,A,4234.1475,N,08340.2253,W,29.33,90.03,230617,,,D*75
$GPRMC,233711.800,A,4234.1475,N,08340.2231,W,28.56,89.90,230617,,,D*7F
$GPRMC,233712.000,A,4234.1475,N,08340.2209,W,27.98,89.71,230617,,,D*7D
$GPRMC,233712.200,A,4234.1475,N,08340.2188,W,27.26,89.44,230617,,,D*76
$GPRMC,233712.400,A,4234.1475,N,08340.2167,W,26.63,89.57,230617,,,D*73
$GPRMC,233712.600,A,4234.1476,N,08340.2147,W,25.98,89.22,230617,,,D*75
$GPRMC,233712.800,A,4234.1476,N,08340.2128,W,25.30,89.75,230617,,,D*72
$GPRMC,233713.000,A,4234.1476,N,08340.2109,W,24.69,89.67,230617,,,D*76
$GPRMC,233713.200,A,4234.1476,N,08340.2090,W,24.06,89.71,230617,,,D*7B
$GPRMC,233713.400,A,4234.1476,N,08340.2072,W,23.42,89.86,230617,,,D*7E
$GPRMC,233713.600,A,4234.1476,N,08340.2054,W,22.70,89.88,230617,,,D*76
$GPRMC,233713.800,A,4234.1476,N,08340.2037,W,22.11,89.78,230617,,,D*75
$GPRMC,233714.000,A,4234.1476,N,08340.2020,W,21.45,90.16,230617,,,D*7E
$GPRMC,233714.200,A,4234.1476,N,08340.2004,W,20.89,90.27,230617,,,D*79
$GPRMC,233714.400,A,4234.1476,N,08340.1988,W,20.47,91.32,230617,,,D*76
$GPRMC,233714.600,A,4234.1476,N,08340.1973,W,20.21,92.81,230617,,,D*7B
$GPRMC,233714.800,A,4234.1475,N,08340.1958,W,20.01,94.49,230617,,,D*7F
$GPRMC,233715.000,A,4234.1474,N,08340.1943,W,19.95,96.87,230617,,,D*7A
$GPRMC,233715.200,A,4234.1473,N,08340.1928,W,19.72,98.81,230617,,,D*73
$GPRMC,233715.400,A,4234.1471,N,08340.1913,W,19.55,100.89,230617,,,D*42
$GPRMC,233715.600,A,4234.1469,N,08340.1898,W,19.32,102.66,230617,,,D*49
$GPRMC,233715.800,A,4234.1467,N,08340.1884,W,19.14,104.66,230617,,,D*46
$GPRMC,233716.000,A,4234.1464,N,08340.1870,W,18.97,106.69,230617,,,D*42
$GPRMC,233716.200,A,4234.1461,N,08340.1856,W,18.66,109.42,230617,,,D*49
$GPRMC,233716.400,A,4234.1457,N,08340.1843,W,18.64,111.16,230617,,,D*44
$GPRMC,233716.600,A,4234.1453,N,08340.1830,W,18.46,113.22,230617,,,D*43
$GPRMC,233716.800,A,4234.1449,N,08340.1817,W,18.24,114.30,230617,,,D*43
$GPRMC,233717.000,A,4234.1444,N,08340.1805,W,18.08,116.30,230617,,,D*48
$GPRMC,233717.200,A,4234.1439,N,08340.1793,W,18.07,118.21,230617,,,D*41
$GPRMC,233717.400,A,4234.1434,N,08340.1781,W,17.78,120.23,230617,,,D*47
$GPRMC,233717.600,A,4234.1429,N,08340.1769,W,17.60,121.02,230617,,,D*44
$GPRMC,233717.800,A,4234.1424,N,08340.1758,W,17.40,120.94,230617,,,D*49
$GPRMC,233718.000,A,4234.1418,N,08340.1747,W,17.08,121.69,230617,,,D*40
$GPRMC,233718.200,A,4234.1413,N,08340.1736,W,16.88,121.93,230617,,,D*43
$GPRMC,233718.400,A,4234.1408,N,08340.1726,W,16.66,121.79,230617,,,D*4A
$GPRMC,233718.600,A,4234.1403,N,08340.1716,W,16.45,121.61,230617,,,D*48
$GPRMC,233718.800,A,4234.1398,N,08340.1706,W,16.23,121.22,230617,,,D*45
$GPRMC,233719.000,A,4234.1393,N,08340.1696,W,16.02,120.00,230617,,,D*4D
$GPRMC,233719.200,A,4234.1388,N,08340.1686,W,15.82,119.61,230617,,,D*42
$GPRMC,233719.400,A,4234.1384,N,08340.1676,W,15.52,118.49,230617,,,D*41
$GPRMC,233719.600,A,4234.1379,N,08340.1666,W,15.26,116.83,230617,,,D*4B
$GPRMC,233719.800,A,4234.1375,N,08340.1656,W,15.10,115.66,230617,,,D*47
$GPRMC,233720.000,A,4234.1372,N,08340.1646,W,14.86,113.81,230617,,,D*42
$GPRMC,233720.200,A,4234.1368,N,08340.1635,W,14.61,110.15,230617,,,D*48
$GPRMC,233720.400,A,4234.1366,N,08340.1625,W,14.60,106.52,230617,,,D*44
$GPRMC,233720.600,A,4234.1364,N,08340.1615,W,14.41,101.78,230617,,,D*4B
$GPRMC,233720.800,A,4234.1362,N,08340.1604,W,14.77,100.22,230617,,,D*48
$GPRMC,233721.000,A,4234.1361,N,08340.1594,W,14.82,96.57,230617,,,D*7E
$GPRMC,233721.200,A,4234.1361,N,08340.1583,W,15.10,95.09,230617,,,D*78
$GPRMC,233721.400,A,4234.1361,N,08340.1572,W,14.73,90.28,230617,,,D*72
$GPRMC,233721.600,A,4234.1361,N,08340.1561,W,14.79,88.04,230617,,,D*7F
$GPRMC,233721.800,A,4234.1362,N,08340.1551,W,14.98,84.56,230617,,,D*75
$GPRMC,233722.000,A,4234.1363,N,08340.1539,W,15.27,82.62,230617,,,D*75
$GPRMC,233722.200,A,4234.1365,N,08340.1528,W,15.30,80.05,230617,,,D*74
$GPRMC,233722.400,A,4234.1367,N,08340.1516,W,15.59,76.86,230617,,,D*70
$GPRMC,233722.600,A,4234.1369,N,08340.1505,W,16.02,74.51,230617,,,D*7B
$GPRMC,233722.800,A,4234.1372,N,08340.1493,W,16.08,70.32,230617,,,D*7A
$GPRMC,233723.000,A,4234.1376,N,08340.1482,W,16.33,68.31,230617,,,D*75
$GPRMC,233723.200,A,4234.1380,N,08340.1471,W,16.38,65.10,230617,,,D*77
$GPRMC,233723.400,A,4234.1384,N,08340.1459,W,16.92,62.29,230617,,,D*72
$GPRMC,233723.600,A,4234.1389,N,08340.1448,W,17.17,59.82,230617,,,D*78
$GPRMC,233723.800,A,4234.1394,N,08340.1437,W,17.41,58.12,230617,,,D*79
$GPRMC,233724.000,A,4234.1400,N,08340.1425,W,17.70,56.57,230617,,,D*72
$GPRMC,233724.200,A,4234.1406,N,08340.1414,W,18.07,54.68,230617,,,D*75
$GPRMC,233724.400,A,4234.1412,N,08340.1402,W,18.42,52.98,230617,,,D*79
$GPRMC,233724.600,A,4234.1418,N,08340.1391,W,18.73,51.00,230617,,,D*7C
$GPRMC,233724.800,A,4234.1425,N,08340.1380,W,18.99,48.78,230617,,,D*7F
$GPRMC,233725.000,A,4234.1432,N,08340.1370,W,19.26,46.81,230617,,,D*72
$GPRMC,233725.200,A,4234.1440,N,08340.1359,W,19.48,44.21,230617,,,D*7E
$GPRMC,233725.400,A,4234.1448,N,08340.1349,W,19.69,40.92,230617,,,D*7E
$GPRMC,233725.600,A,4234.1456,N,08340.1340,W,19.88,38.14,230617,,,D*74
$GPRMC,233725.800,A,4234.1465,N,08340.1331,W,19.92,35.75,230617,,,D*7D
$GPRMC,233726.000,A,4234.1475,N,08340.1323,W,19.96,32.85,230617,,,D*78
$GPRMC,233726.200,A,4234.1485,N,08340.1316,W,19.71,27.99,230617,,,D*73
$GPRMC,233726.400,A,4234.1495,N,08340.1310,W,19.78,23.29,230617,,,D*74
$GPRMC,233726.600,A,4234.1505,N,08340.1306,W,19.97,19.01,230617,,,D*7B
$GPRMC,233726.800,A,4234.1516,N,08340.1302,W,19.96,14.53,230617,,,D*78
$GPRMC,233727.000,A,4234.1527,N,08340.1299,W,19.98,11.18,230617,,,D*74
$GPRMC,233727.200,A,4234.1539,N,08340.1297,W,20.41,6.41,230617,,,D*43
$GPRMC,233727.400,A,4234.1550,N,08340.1296,W,20.56,3.98,230617,,,D*4C
$GPRMC,233727.600,A,4234.1562,N,08340.1296,W,20.97,359.78,230617,,,D*40
$GPRMC,233727.800,A,4234.1574,N,08340.1297,W,21.24,356.20,230617,,,D*43
$GPRMC,233728.000,A,4234.1586,N,08340.1299,W,20.97,353.25,230617,,,D*4E
$GPRMC,233728.200,A,4234.1598,N,08340.1302,W,21.13,349.08,230617,,,D*49
$GPRMC,233728.400,A,4234.1609,N,08340.1306,W,21.36,345.90,230617,,,D*4A
$GPRMC,233728.600,A,4234.1621,N,08340.1310,W,21.41,342.39,230617,,,D*41
$GPRMC,233728.800,A,4234.1632,N,08340.1316,W,21.65,338.72,230617,,,D*4F
$GPRMC,233729.000,A,4234.1643,N,08340.1321,W,21.58,337.22,230617,,,D*40
$GPRMC,233729.200,A,4234.1654,N,08340.1328,W,21.64,333.97,230617,,,D*48
$GPRMC,233729.400,A,4234.1664,N,08340.1336,W,21.84,330.92,230617,,,D*4A
$GPRMC,233729.600,A,4234.1675,N,08340.1344,W,21.92,327.92,230617,,,D*4C
$GPRMC,233729.800,A,4234.1685,N,08340.1354,W,22.39,325.16,230617,,,D*40
$GPRMC,233730.000,A,4234.1695,N,08340.1364,W,22.38,322.85,230617,,,D*4E
$GPRMC,233730.200,A,4234.1704,N,08340.1375,W,22.37,321.15,230617,,,D*40
$GPRMC,233730.400,A,4234.1713,N,08340.1386,W,22.37,318.53,230617,,,D*44
$GPRMC,233730.600,A,4234.1722,N,08340.1397,W,22.07,317.85,230617,,,D*43
$GPRMC,233730.800,A,4234.1731,N,08340.1408,W,22.29,318.29,230617,,,D*4B
$GPRMC,233730.999,A,4234.1741,N,08340.1419,W,22.22,319.36,230617,,,D*49
$GPRMC,233731.199,A,4234.1750,N,08340.1430,W,21.93,320.79,230617,,,D*43
$GPRMC,233731.399,A,4234.1760,N,08340.1440,W,21.95,321.78,230617,,,D*43
$GPRMC,233731.599,A,4234.1769,N,08340.1450,W,21.99,323.83,230617,,,D*47
$GPRMC,233731.799,A,4234.1779,N,08340.1460,W,22.20,326.37,230617,,,D*4C
$GPRMC,233732.000,A,4234.1790,N,08340.1469,W,22.27,328.41,230617,,,D*4E
$GPRMC,233732.200,A,4234.1800,N,08340.1478,W,22.70,329.87,230617,,,D*43
$GPRMC,233732.400,A,4234.1811,N,08340.1487,W,22.72,331.84,230617,,,D*4D
$GPRMC,233732.600,A,4234.1823,N,08340.1495,W,22.71,334.25,230617,,,D*40
$GPRMC,233732.800,A,4234.1835,N,08340.1502,W,23.33,337.17,230617,,,D*43
$GPRMC,233733.000,A,4234.1848,N,08340.1508,W,23.68,340.06,230617,,,D*44
$GPRMC,233733.200,A,4234.1861,N,08340.1514,W,23.88,343.04,230617,,,D*4F
$GPRMC,233733.400,A,4234.1874,N,08340.1519,W,24.25,345.43,230617,,,D*45
$GPRMC,233733.600,A,4234.1887,N,08340.1523,W,24.29,347.41,230617,,,D*4E
$GPRMC,233733.800,A,4234.1900,N,08340.1527,W,24.60,350.04,230617,,,D*40
$GPRMC,233734.000,A,4234.1915,N,08340.1530,W,25.07,352.26,230617,,,D*4F
$GPRMC,233734.200,A,4234.1929,N,08340.1532,W,25.49,354.06,230617,,,D*4E
$GPRMC,233734.400,A,4234.1943,N,08340.1534,W,26.03,355.82,230617,,,D*42
$GPRMC,233734.600,A,4234.1958,N,08340.1536,W,25.96,356.80,230617,,,D*46
$GPRMC,233734.800,A,4234.1974,N,08340.1537,W,27.39,357.25,230617,,,D*4E
$GPRMC,233735.000,A,4234.1989,N,08340.1538,W,27.87,357.81,230617,,,D*41
$GPRMC,233735.200,A,4234.2005,N,08340.1539,W,28.50,358.18,230617,,,D*46
$GPRMC,233735.400,A,4234.2021,N,08340.1540,W,28.83,358.23,230617,,,D*4E
$GPRMC,233735.600,A,4234.2038,N,08340.1541,W,29.05,358.71,230617,,,D*4D
$GPRMC,233735.800,A,4234.2054,N,08340.1542,W,29.30,358.93,230617,,,D*40
$GPRMC,233736.000,A,4234.2071,N,08340.1543,W,29.26,359.30,230617,,,D*42
$GPRMC,233736.200,A,4234.2087,N,08340.1543,W,29.26,359.68,230617,,,D*44
$GPRMC,233736.400,A,4234.2104,N,08340.1543,W,29.23,0.06,230617,,,D*4A
$GPRMC,233736.600,A,4234.2121,N,08340.1543,W,29.25,0.24,230617,,,D*49
$GPRMC,233736.800,A,4234.2137,N,08340.1543,W,29.28,0.56,230617,,,D*48
$GPRMC,233737.000,A,4234.2154,N,08340.1543,W,29.28,0.87,230617,,,D*48
$GPRMC,233737.200,A,4234.2171,N,08340.1542,W,29.50,0.96,230617,,,D*43
$GPRMC,233737.400,A,4234.2187,N,08340.1541,W,29.50,1.34,230617,,,D*46
$GPRMC,233737.600,A,4234.2204,N,08340.1541,W,29.47,1.39,230617,,,D*47
$GPRMC,233737.800,A,4234.2220,N,08340.1540,W,29.46,1.55,230617,,,D*45
$GPRMC,233738.000,A,4234.2237,N,08340.1539,W,29.46,1.84,230617,,,D*46
$GPRMC,233738.200,A,4234.2254,N,08340.1538,W,29.49,1.90,230617,,,D*4A
$GPRMC,233738.400,A,4234.2270,N,08340.1537,W,29.51,2.35,230617,,,D*40
$GPRMC,233738.600,A,4234.2286,N,08340.1536,W,29.52,2.55,230617,,,D*4F
$GPRMC,233738.800,A,4234.2303,N,08340.1535,W,29.70,2.82,230617,,,D*44
$GPRMC,233739.000,A,4234.2319,N,08340.1534,W,29.66,2.72,230617,,,D*4F
$GPRMC,233739.200,A,4234.2335,N,08340.1533,W,29.68,3.19,230617,,,D*46
$GPRMC,233739.400,A,4234.2352,N,08340.1531,W,29.67,3.82,230617,,,D*4E
$GPRMC,233739.600,A,4234.2368,N,08340.1529,W,29.68,4.54,230617,,,D*4F
$GPRMC,233739.800,A,4234.2384,N,08340.1528,W,29.72,5.11,230617,,,D*49
$GPRMC,233740.000,A,4234.2400,N,08340.1525,W,29.73,5.74,230617,,,D*4B
$GPRMC,233740.200,A,4234.2417,N,08340.1523,W,29.72,6.22,230617,,,D*48
$GPRMC,233740.400,A,4234.2433,N,08340.1521,W,29.94,6.73,230617,,,D*46
$GPRMC,233740.600,A,4234.2449,N,08340.1519,W,29.77,7.58,230617,,,D*47
$GPRMC,233740.800,A,4234.2466,N,08340.1516,W,29.81,7.80,230617,,,D*47
$GPRMC,233741.000,A,4234.2482,N,08340.1513,W,29.87,7.86,230617,,,D*41
$GPRMC,233741.200,A,4234.2498,N,08340.1509,W,29.87,8.04,230617,,,D*46
$GPRMC,233741.400,A,4234.2515,N,08340.1507,W,30.08,8.00,230617,,,D*41
$GPRMC,233741.600,A,4234.2531,N,08340.1504,W,30.13,8.36,230617,,,D*49
$GPRMC,233741.800,A,4234.2548,N,08340.1501,W,30.19,8.47,230617,,,D*40
$GPRMC,233742.000,A,4234.2565,N,08340.1497,W,30.40,9.31,230617,,,D*46
$GPRMC,233742.200,A,4234.2581,N,08340.1493,W,30.12,9.16,230617,,,D*48
$GPRMC,233742.400,A,4234.2598,N,08340.1490,W,30.18,9.63,230617,,,D*4D
$GPRMC,233742.600,A,4234.2614,N,08340.1486,W,30.11,9.66,230617,,,D*43
$GPRMC,233742.800,A,4234.2631,N,08340.1482,W,30.09,9.73,230617,,,D*43
$GPRMC,233743.000,A,4234.2647,N,08340.1478,W,30.16,10.42,230617,,,D*7A
$GPRMC,233743.200,A,4234.2664,N,08340.1473,W,30.15,10.90,230617,,,D*7E
$GPRMC,233743.400,A,4234.2680,N,08340.1469,W,30.18,11.07,230617,,,D*7B
$GPRMC,233743.600,A,4234.2697,N,08340.1465,W,30.20,11.77,230617,,,D*7F
$GPRMC,233743.800,A,4234.2713,N,08340.1460,W,30.23,11.98,230617,,,D*7B
$GPRMC,233744.000,A,4234.2729,N,08340.1455,W,30.25,12.44,230617,,,D*7F
$GPRMC,233744.200,A,4234.2745,N,08340.1450,W,30.27,13.18,230617,,,D*78
$GPRMC,233744.400,A,4234.2761,N,08340.1445,W,30.29,13.82,230617,,,D*71
$GPRMC,233744.600,A,4234.2778,N,08340.1440,W,30.33,14.71,230617,,,D*7E
$GPRMC,233744.800,A,4234.2794,N,08340.1434,W,30.33,14.32,230617,,,D*76
$GPRMC,233745.000,A,4234.2810,N,08340.1429,W,30.32,14.90,230617,,,D*79
$GPRMC,233745.200,A,4234.2826,N,08340.1423,W,30.16,15.53,230617,,,D*7C
$GPRMC,233745.400,A,4234.2842,N,08340.1417,W,30.16,16.08,230617,,,D*72
$GPRMC,233745.600,A,4234.2858,N,08340.1410,W,30.23,16.36,230617,,,D*77
$GPRMC,233745.800,A,4234.2874,N,08340.1404,W,30.25,17.20,230617,,,D*72
$GPRMC,233746.000,A,4234.2890,N,08340.1398,W,30.26,17.32,230617,,,D*71
$GPRMC,233746.200,A,4234.2906,N,08340.1391,W,30.30,17.22,230617,,,D*72
$GPRMC,233746.400,A,4234.2922,N,08340.1385,W,30.32,17.12,230617,,,D*76
$GPRMC,233746.600,A,4234.2938,N,08340.1378,W,30.53,18.03,230617,,,D*75
$GPRMC,233746.800,A,4234.2954,N,08340.1371,W,30.50,18.43,230617,,,D*7F
$GPRMC,233747.000,A,4234.2970,N,08340.1363,W,30.50,18.79,230617,,,D*7A
$GPRMC,233747.200,A,4234.2986,N,08340.1356,W,30.50,19.54,230617,,,D*79
$GPRMC,233747.400,A,4234.3002,N,08340.1348,W,30.51,19.82,230617,,,D*7E
$GPRMC,233747.600,A,4234.3018,N,08340.1341,W,30.55,19.74,230617,,,D*73
$GPRMC,233747.800,A,4234.3034,N,08340.1333,W,30.56,20.07,230617,,,D*7B
$GPRMC,233748.000,A,4234.3050,N,08340.1325,W,30.61,20.69,230617,,,D*75
$GPRMC,233748.200,A,4234.3065,N,08340.1317,W,30.60,21.52,230617,,,D*78
$GPRMC,233748.400,A,4234.3081,N,08340.1308,W,30.57,21.80,230617,,,D*71
$GPRMC,233748.600,A,4234.3097,N,08340.1300,W,30.78,21.32,230617,,,D*78
$GPRMC,233748.800,A,4234.3113,N,08340.1292,W,30.78,21.71,230617,,,D*76
$GPRMC,233749.000,A,4234.3129,N,08340.1283,W,30.82,21.92,230617,,,D*7E
$GPRMC,233749.200,A,4234.3145,N,08340.1275,W,30.84,22.03,230617,,,D*72
$GPRMC,233749.400,A,4234.3161,N,08340.1266,W,30.86,21.99,230617,,,D*72
$GPRMC,233749.600,A,4234.3177,N,08340.1258,W,30.92,22.28,230617,,,D*76
$GPRMC,233749.800,A,4234.3193,N,08340.1249,W,30.91,22.63,230617,,,D*7E
$GPRMC,233750.000,A,4234.3209,N,08340.1240,W,30.90,22.99,230617,,,D*73
$GPRMC,233750.200,A,4234.3225,N,08340.1231,W,30.89,23.34,230617,,,D*77
$GPRMC,233750.400,A,4234.3241,N,08340.1222,W,30.91,23.67,230617,,,D*7E
$GPRMC,233750.600,A,4234.3256,N,08340.1212,W,30.94,24.24,230617,,,D*7C
$GPRMC,233750.800,A,4234.3272,N,08340.1202,W,30.99,24.84,230617,,,D*72
$GPRMC,233751.000,A,4234.3287,N,08340.1192,W,31.05,25.14,230617,,,D*77
$GPRMC,233751.200,A,4234.3303,N,08340.1181,W,31.07,25.95,230617,,,D*71
$GPRMC,233751.400,A,4234.3318,N,08340.1171,W,31.10,26.84,230617,,,D*77
$GPRMC,233751.600,A,4234.3333,N,08340.1160,W,31.12,26.68,230617,,,D*7C
$GPRMC,233751.800,A,4234.3349,N,08340.1149,W,31.09,27.51,230617,,,D*75
$GPRMC,233752.000,A,4234.3364,N,08340.1138,W,31.09,27.91,230617,,,D*7B
$GPRMC,233752.200,A,4234.3380,N,08340.1127,W,31.11,28.55,230617,,,D*73
$GPRMC,233752.400,A,4234.3395,N,08340.1116,W,31.14,28.74,230617,,,D*75
$GPRMC,233752.600,A,4234.3410,N,08340.1104,W,31.19,28.85,230617,,,D*7D
$GPRMC,233752.800,A,4234.3426,N,08340.1093,W,31.20,29.08,230617,,,D*77
$GPRMC,233753.000,A,4234.3441,N,08340.1081,W,31.16,29.29,230617,,,D*7A
$GPRMC,233753.200,A,4234.3456,N,08340.1070,W,31.16,29.50,230617,,,D*7E
$GPRMC,233753.400,A,4234.3471,N,08340.1058,W,30.88,29.71,230617,,,D*72
$GPRMC,233753.600,A,4234.3485,N,08340.1046,W,30.97,30.52,230617,,,D*73
$GPRMC,233753.800,A,4234.3500,N,08340.1034,W,30.46,29.87,230617,,,D*78
$GPRMC,233754.000,A,4234.3515,N,08340.1023,W,29.84,29.01,230617,,,D*7D
$GPRMC,233754.200,A,4234.3529,N,08340.1012,W,29.83,29.07,230617,,,D*73
$GPRMC,233754.400,A,4234.3544,N,08340.1000,W,30.09,30.49,230617,,,D*75
$GPRMC,233754.600,A,4234.3558,N,08340.0988,W,30.36,32.43,230617,,,D*76
$GPRMC,233754.800,A,4234.3572,N,08340.0975,W,30.01,32.77,230617,,,D*71
$GPRMC,233755.000,A,4234.3587,N,08340.0962,W,30.15,33.08,230617,,,D*78
$GPRMC,233755.200,A,4234.3601,N,08340.0949,W,30.32,33.26,230617,,,D*77
$GPRMC,233755.400,A,4234.3616,N,08340.0936,W,31.50,33.31,230617,,,D*7C
$GPRMC,233755.600,A,4234.3631,N,08340.0923,W,31.48,33.55,230617,,,D*74
$GPRMC,233755.800,A,4234.3646,N,08340.0909,W,31.65,33.79,230617,,,D*73
$GPRMC,233756.000,A,4234.3661,N,08340.0896,W,31.83,33.09,230617,,,D*75
$GPRMC,233756.200,A,4234.3676,N,08340.0883,W,32.05,33.25,230617,,,D*76
$GPRMC,233756.400,A,4234.3691,N,08340.0869,W,32.19,33.51,230617,,,D*73
$GPRMC,233756.600,A,4234.3705,N,08340.0855,W,32.16,34.35,230617,,,D*78
$GPRMC,233756.800,A,4234.3720,N,08340.0841,W,32.35,35.15,230617,,,D*76
$GPRMC,233757.000,A,4234.3734,N,08340.0826,W,32.53,35.96,230617,,,D*70
$GPRMC,233757.200,A,4234.3749,N,08340.0812,W,32.47,36.18,230617,,,D*7F
$GPRMC,233757.400,A,4234.3763,N,08340.0797,W,32.30,36.56,230617,,,D*79
$GPRMC,233757.600,A,4234.3777,N,08340.0782,W,32.07,37.11,230617,,,D*7C
$GPRMC,233757.800,A,4234.3791,N,08340.0767,W,32.10,38.01,230617,,,D*79
$GPRMC,233758.000,A,4234.3805,N,08340.0752,W,32.29,38.51,230617,,,D*75
$GPRMC,233758.200,A,4234.3819,N,08340.0736,W,32.23,38.68,230617,,,D*78
$GPRMC,233758.400,A,4234.3833,N,08340.0721,W,32.21,38.95,230617,,,D*70
$GPRMC,233758.600,A,4234.3847,N,08340.0706,W,32.21,39.15,230617,,,D*7D
$GPRMC,233758.800,A,4234.3860,N,08340.0690,W,32.25,39.69,230617,,,D*77
$GPRMC,233759.000,A,4234.3874,N,08340.0674,W,32.48,40.06,230617,,,D*7D
$GPRMC,233759.200,A,4234.3888,N,08340.0658,W,32.54,40.45,230617,,,D*78
$GPRMC,233759.400,A,4234.3901,N,08340.0642,W,32.71,40.88,230617,,,D*73
$GPRMC,233759.600,A,4234.3915,N,08340.0625,W,32.69,40.91,230617,,,D*74
$GPRMC,233759.800,A,4234.3929,N,08340.0609,W,32.67,40.98,230617,,,D*7C
$GPRMC,233800.000,A,4234.3943,N,08340.0593,W,32.65,40.62,230617,,,D*7C
$GPRMC,233800.200,A,4234.3956,N,08340.0577,W,32.62,40.52,230617,,,D*74
$GPRMC,233800.400,A,4234.3970,N,08340.0562,W,32.57,40.11,230617,,,D*73
$GPRMC,233800.600,A,4234.3983,N,08340.0545,W,32.60,40.35,230617,,,D*7A
$GPRMC,233800.800,A,4234.3997,N,08340.0529,W,32.99,40.78,230617,,,D*74
$GPRMC,233801.000,A,4234.4010,N,08340.0512,W,32.99,41.25,230617,,,D*7D
$GPRMC,233801.200,A,4234.4024,N,08340.0495,W,32.98,41.38,230617,,,D*7B
$GPRMC,233801.400,A,4234.4037,N,08340.0479,W,33.02,41.87,230617,,,D*7B
$GPRMC,233801.600,A,4234.4050,N,08340.0461,W,33.09,42.36,230617,,,D*73
$GPRMC,233801.800,A,4234.4063,N,08340.0444,W,33.05,42.82,230617,,,D*79
$GPRMC,233802.000,A,4234.4076,N,08340.0427,W,33.09,43.13,230617,,,D*76
$GPRMC,233802.200,A,4234.4089,N,08340.0410,W,33.12,43.47,230617,,,D*7B
$GPRMC,233802.400,A,4234.4102,N,08340.0392,W,33.14,44.40,230617,,,D*74
$GPRMC,233802.600,A,4234.4115,N,08340.0374,W,33.19,45.17,230617,,,D*76
$GPRMC,233802.800,A,4234.4128,N,08340.0356,W,33.20,45.90,230617,,,D*73
$GPRMC,233803.000,A,4234.4140,N,08340.0338,W,33.00,46.12,230617,,,D*77
$GPRMC,233803.200,A,4234.4153,N,08340.0320,W,33.06,46.49,230617,,,D*76
$GPRMC,233803.400,A,4234.4165,N,08340.0302,W,33.12,47.48,230617,,,D*70
$GPRMC,233803.600,A,4234.4177,N,08340.0283,W,33.18,47.97,230617,,,D*71
$GPRMC,233803.800,A,4234.4189,N,08340.0264,W,33.25,48.21,230617,,,D*7B
$GPRMC,233804.000,A,4234.4201,N,08340.0244,W,33.23,48.46,230617,,,D*72
$GPRMC,233804.200,A,4234.4212,N,08340.0224,W,33.28,48.49,230617,,,D*70
$GPRMC,233804.400,A,4234.4224,N,08340.0205,W,33.33,48.82,230617,,,D*7D
$GPRMC,233804.600,A,4234.4235,N,08340.0185,W,33.36,49.49,230617,,,D*77
$GPRMC,233804.800,A,4234.4247,N,08340.0165,W,33.36,50.04,230617,,,D*73
$GPRMC,233805.000,A,4234.4258,N,08340.0145,W,33.15,50.22,230617,,,D*73
$GPRMC,233805.200,A,4234.4269,N,08340.0125,W,33.21,50.18,230617,,,D*7B
$GPRMC,233805.400,A,4234.4281,N,08340.0105,W,33.41,50.03,230617,,,D*75
$GPRMC,233805.600,A,4234.4292,N,08340.0085,W,33.22,49.89,230617,,,D*73
$GPRMC,233805.800,A,4234.4303,N,08340.0065,W,33.18,49.79,230617,,,D*7C
$GPRMC,233806.000,A,4234.4315,N,08340.0046,W,33.03,49.81,230617,,,D*7C
$GPRMC,233806.200,A,4234.4326,N,08340.0027,W,33.05,49.81,230617,,,D*7F
$GPRMC,233806.400,A,4234.4337,N,08340.0007,W,33.07,49.64,230617,,,D*72
$GPRMC,233806.600,A,4234.4348,N,08339.9988,W,33.06,49.50,230617,,,D*77
$GPRMC,233806.800,A,4234.4360,N,08339.9968,W,33.25,49.32,230617,,,D*78
$GPRMC,233807.000,A,4234.4372,N,08339.9948,W,33.17,49.11,230617,,,D*70
$GPRMC,233807.200,A,4234.4384,N,08339.9929,W,34.13,48.98,230617,,,D*7F
$GPRMC,233807.400,A,4234.4396,N,08339.9909,W,34.71,48.77,230617,,,D*7D
$GPRMC,233807.600,A,4234.4409,N,08339.9889,W,34.98,48.99,230617,,,D*70
$GPRMC,233807.800,A,4234.4421,N,08339.9868,W,35.42,49.27,230617,,,D*79
$GPRMC,233808.000,A,4234.4434,N,08339.9847,W,35.26,48.80,230617,,,D*79
$GPRMC,233808.200,A,4234.4447,N,08339.9826,W,35.43,48.96,230617,,,D*7C
$GPRMC,233808.400,A,4234.4461,N,08339.9805,W,35.71,49.02,230617,,,D*72
$GPRMC,233808.600,A,4234.4474,N,08339.9784,W,35.78,49.07,230617,,,D*7E
$GPRMC,233808.800,A,4234.4487,N,08339.9763,W,36.09,49.01,230617,,,D*76
$GPRMC,233809.000,A,4234.4500,N,08339.9742,W,36.32,48.75,230617,,,D*78
$GPRMC,233809.200,A,4234.4513,N,08339.9721,W,36.64,48.86,230617,,,D*72
$GPRMC,233809.400,A,4234.4526,N,08339.9699,W,36.70,48.88,230617,,,D*7B
$GPRMC,233809.600,A,4234.4540,N,08339.9678,W,37.02,48.64,230617,,,D*70
$GPRMC,233809.800,A,4234.4553,N,08339.9657,W,37.26,48.33,230617,,,D*75
$GPRMC,233810.000,A,4234.4567,N,08339.9636,W,37.50,48.06,230617,,,D*72
$GPRMC,233810.200,A,4234.4581,N,08339.9614,W,37.75,48.04,230617,,,D*7D
$GPRMC,233810.400,A,4234.4595,N,08339.9593,W,37.96,47.87,230617,,,D*7B
$GPRMC,233810.600,A,4234.4609,N,08339.9571,W,38.16,47.73,230617,,,D*7F
$GPRMC,233810.800,A,4234.4624,N,08339.9550,W,38.38,47.65,230617,,,D*76
$GPRMC,233811.000,A,4234.4638,N,08339.9528,W,38.63,47.57,230617,,,D*72
$GPRMC,233811.200,A,4234.4653,N,08339.9507,W,38.87,47.48,230617,,,D*74
$GPRMC,233811.400,A,4234.4667,N,08339.9485,W,39.06,47.37,230617,,,D*7E
$GPRMC,233811.600,A,4234.4682,N,08339.9463,W,39.28,47.36,230617,,,D*72
$GPRMC,233811.800,A,4234.4697,N,08339.9441,W,39.47,47.34,230617,,,D*73
$GPRMC,233812.000,A,4234.4712,N,08339.9419,W,39.64,47.41,230617,,,D*7A
$GPRMC,233812.200,A,4234.4727,N,08339.9397,W,39.88,47.29,230617,,,D*73
$GPRMC,233812.400,A,4234.4742,N,08339.9375,W,39.96,47.16,230617,,,D*79
$GPRMC,233812.600,A,4234.4757,N,08339.9353,W,40.29,47.01,230617,,,D*77
$GPRMC,233812.800,A,4234.4773,N,08339.9330,W,40.50,47.18,230617,,,D*7C
$GPRMC,233813.000,A,4234.4788,N,08339.9308,W,40.70,47.29,230617,,,D*7A
$GPRMC,233813.200,A,4234.4804,N,08339.9286,W,40.92,47.35,230617,,,D*75
$GPRMC,233813.400,A,4234.4819,N,08339.9263,W,41.19,47.37,230617,,,D*74
$GPRMC,233813.600,A,4234.4835,N,08339.9240,W,41.49,47.50,230617,,,D*7D
$GPRMC,233813.800,A,4234.4850,N,08339.9217,W,41.71,47.55,230617,,,D*7C
$GPRMC,233814.000,A,4234.4866,N,08339.9194,W,41.98,47.49,230617,,,D*74
$GPRMC,233814.200,A,4234.4882,N,08339.9170,W,42.26,47.46,230617,,,D*7F
$GPRMC,233814.400,A,4234.4897,N,08339.9147,W,42.33,47.54,230617,,,D*7E
$GPRMC,233814.600,A,4234.4913,N,08339.9123,W,42.75,47.53,230617,,,D*76
$GPRMC,233814.800,A,4234.4929,N,08339.9099,W,42.95,47.58,230617,,,D*74
$GPRMC,233815.000,A,4234.4945,N,08339.9075,W,43.24,47.55,230617,,,D*73
$GPRMC,233815.200,A,4234.4962,N,08339.9051,W,43.48,47.56,230617,,,D*7B
$GPRMC,233815.400,A,4234.4978,N,08339.9027,W,43.75,47.47,230617,,,D*79
$GPRMC,233815.600,A,4234.4994,N,08339.9002,W,43.92,47.54,230617,,,D*75
$GPRMC,233815.800,A,4234.5011,N,08339.8978,W,44.19,47.54,230617,,,D*7F
$GPRMC,233816.000,A,4234.5028,N,08339.8953,W,44.23,47.58,230617,,,D*72
$GPRMC,233816.200,A,4234.5044,N,08339.8929,W,44.25,47.60,230617,,,D*7A
$GPRMC,233816.400,A,4234.5061,N,08339.8904,W,44.27,47.55,230617,,,D*70
$GPRMC,233816.600,A,4234.5077,N,08339.8879,W,44.26,47.57,230617,,,D*7D
$GPRMC,233816.800,A,4234.5094,N,08339.8855,W,44.23,47.68,230617,,,D*79
$GPRMC,233817.000,A,4234.5111,N,08339.8830,W,44.22,48.00,230617,,,D*7F
$GPRMC,233817.200,A,4234.5127,N,08339.8805,W,44.06,47.48,230617,,,D*7B
$GPRMC,233817.400,A,4234.5143,N,08339.8781,W,44.02,47.78,230617,,,D*7B
$GPRMC,233817.600,A,4234.5160,N,08339.8756,W,43.96,47.86,230617,,,D*79
$GPRMC,233817.800,A,4234.5176,N,08339.8732,W,43.90,47.95,230617,,,D*76
$GPRMC,233818.000,A,4234.5193,N,08339.8707,W,43.82,47.72,230617,,,D*76
$GPRMC,233818.200,A,4234.5209,N,08339.8683,W,43.66,47.80,230617,,,D*7E
$GPRMC,233818.400,A,4234.5225,N,08339.8659,W,43.60,47.76,230617,,,D*7E
$GPRMC,233818.600,A,4234.5241,N,08339.8634,W,43.56,47.81,230617,,,D*78
$GPRMC,233818.800,A,4234.5257,N,08339.8610,W,43.50,47.89,230617,,,D*79
$GPRMC,233819.000,A,4234.5274,N,08339.8586,W,43.45,47.83,230617,,,D*73
$GPRMC,233819.200,A,4234.5290,N,08339.8562,W,43.38,47.94,230617,,,D*7D
$GPRMC,233819.400,A,4234.5306,N,08339.8538,W,43.21,47.88,230617,,,D*7F
$GPRMC,233819.600,A,4234.5322,N,08339.8514,W,43.21,47.87,230617,,,D*7A
$GPRMC,233819.800,A,4234.5338,N,08339.8490,W,43.23,47.96,230617,,,D*70
$GPRMC,233820.000,A,4234.5354,N,08339.8466,W,43.24,47.94,230617,,,D*74
$GPRMC,233820.200,A,4234.5370,N,08339.8441,W,43.26,47.98,230617,,,D*7B
$GPRMC,233820.400,A,4234.5386,N,08339.8417,W,43.27,48.10,230617,,,D*79
$GPRMC,233820.600,A,4234.5402,N,08339.8393,W,43.31,47.98,230617,,,D*73
$GPRMC,233820.800,A,4234.5419,N,08339.8369,W,43.33,48.25,230617,,,D*79
$GPRMC,233821.000,A,4234.5435,N,08339.8344,W,43.36,48.32,230617,,,D*72
$GPRMC,233821.200,A,4234.5451,N,08339.8320,W,43.40,48.30,230617,,,D*73
$GPRMC,233821.400,A,4234.5467,N,08339.8295,W,43.43,48.29,230617,,,D*74
$GPRMC,233821.600,A,4234.5483,N,08339.8271,W,43.46,48.05,230617,,,D*7D
$GPRMC,233821.800,A,4234.5499,N,08339.8247,W,43.49,48.24,230617,,,D*71
$GPRMC,233822.000,A,4234.5515,N,08339.8222,W,43.51,48.18,230617,,,D*7A
$GPRMC,233822.200,A,4234.5531,N,08339.8198,W,43.54,48.28,230617,,,D*7A
$GPRMC,233822.400,A,4234.5547,N,08339.8173,W,43.55,48.16,230617,,,D*74
$GPRMC,233822.600,A,4234.5563,N,08339.8149,W,43.55,48.15,230617,,,D*7A
$GPRMC,233822.800,A,4234.5579,N,08339.8124,W,43.54,48.06,230617,,,D*77
$GPRMC,233823.000,A,4234.5595,N,08339.8100,W,43.51,48.02,230617,,,D*7B
$GPRMC,233823.200,A,4234.5611,N,08339.8076,W,43.48,47.99,230617,,,D*73
$GPRMC,233823.400,A,4234.5627,N,08339.8051,W,43.42,48.06,230617,,,D*76
$GPRMC,233823.600,A,4234.5643,N,08339.8027,W,43.37,47.87,230617,,,D*73
$GPRMC,233823.800,A,4234.5659,N,08339.8003,W,43.34,47.81,230617,,,D*75
$GPRMC,233824.000,A,4234.5675,N,08339.7979,W,43.33,47.81,230617,,,D*78
$GPRMC,233824.200,A,4234.5691,N,08339.7955,W,43.35,47.79,230617,,,D*7F
$GPRMC,233824.400,A,4234.5708,N,08339.7931,W,43.52,47.68,230617,,,D*7B
$GPRMC,233824.600,A,4234.5724,N,08339.7906,W,43.55,47.74,230617,,,D*79
$GPRMC,233824.800,A,4234.5740,N,08339.7882,W,43.61,47.66,230617,,,D*7C
$GPRMC,233825.000,A,4234.5756,N,08339.7858,W,43.67,47.77,230617,,,D*73
$GPRMC,233825.200,A,4234.5772,N,08339.7833,W,43.83,47.75,230617,,,D*72
$GPRMC,233825.400,A,4234.5789,N,08339.7809,W,43.84,47.71,230617,,,D*7A
$GPRMC,233825.600,A,4234.5805,N,08339.7784,W,43.83,47.88,230617,,,D*78
$GPRMC,233825.800,A,4234.5821,N,08339.7760,W,43.76,48.10,230617,,,D*7E
$GPRMC,233826.000,A,4234.5837,N,08339.7735,W,43.57,48.23,230617,,,D*71
$GPRMC,233826.200,A,4234.5854,N,08339.7711,W,43.50,48.31,230617,,,D*74
$GPRMC,233826.400,A,4234.5870,N,08339.7686,W,43.25,48.30,230617,,,D*78
$GPRMC,233826.600,A,4234.5886,N,08339.7662,W,43.19,48.38,230617,,,D*7E
$GPRMC,233826.800,A,4234.5901,N,08339.7638,W,43.02,48.27,230617,,,D*75
$GPRMC,233827.000,A,4234.5917,N,08339.7614,W,42.77,48.26,230617,,,D*77
$GPRMC,233827.200,A,4234.5933,N,08339.7589,W,42.73,48.64,230617,,,D*76
$GPRMC,233827.400,A,4234.5949,N,08339.7565,W,42.57,48.33,230617,,,D*7B
$GPRMC,233827.600,A,4234.5964,N,08339.7542,W,42.54,48.60,230617,,,D*76
$GPRMC,233827.800,A,4234.5980,N,08339.7518,W,41.76,48.58,230617,,,D*75
$GPRMC,233828.000,A,4234.5995,N,08339.7495,W,41.40,48.52,230617,,,D*7D
$GPRMC,233828.200,A,4234.6010,N,08339.7472,W,40.90,48.48,230617,,,D*76
$GPRMC,233828.400,A,4234.6025,N,08339.7449,W,40.56,48.66,230617,,,D*78
$GPRMC,233828.600,A,4234.6039,N,08339.7426,W,40.01,48.67,230617,,,D*7D
$GPRMC,233828.800,A,4234.6054,N,08339.7404,W,39.51,48.51,230617,,,D*76
$GPRMC,233829.000,A,4234.6068,N,08339.7382,W,39.08,48.59,230617,,,D*7D
$GPRMC,233829.200,A,4234.6082,N,08339.7360,W,38.80,49.12,230617,,,D*78
$GPRMC,233829.400,A,4234.6096,N,08339.7338,W,38.60,49.07,230617,,,D*7C
$GPRMC,233829.600,A,4234.6110,N,08339.7317,W,38.33,48.45,230617,,,D*7D
$GPRMC,233829.800,A,4234.6124,N,08339.7296,W,38.12,48.63,230617,,,D*7B
$GPRMC,233830.000,A,4234.6138,N,08339.7274,W,38.04,48.56,230617,,,D*7B
$GPRMC,233830.200,A,4234.6152,N,08339.7253,W,37.82,48.32,230617,,,D*73
$GPRMC,233830.400,A,4234.6166,N,08339.7232,W,37.60,48.35,230617,,,D*7E
$GPRMC,233830.600,A,4234.6179,N,08339.7211,W,37.37,48.60,230617,,,D*71
$GPRMC,233830.800,A,4234.6193,N,08339.7190,W,37.16,48.48,230617,,,D*78
$GPRMC,233831.000,A,4234.6207,N,08339.7170,W,36.93,48.32,230617,,,D*70
$GPRMC,233831.200,A,4234.6220,N,08339.7149,W,36.53,49.01,230617,,,D*70
$GPRMC,233831.400,A,4234.6233,N,08339.7128,W,36.46,48.41,230617,,,D*72
$GPRMC,233831.600,A,4234.6246,N,08339.7108,W,36.17,48.57,230617,,,D*73
$GPRMC,233831.800,A,4234.6259,N,08339.7087,W,36.14,48.55,230617,,,D*74
$GPRMC,233832.000,A,4234.6272,N,08339.7067,W,35.58,48.43,230617,,,D*74
$GPRMC,233832.200,A,4234.6285,N,08339.7047,W,35.32,48.18,230617,,,D*7E
$GPRMC,233832.400,A,4234.6298,N,08339.7028,W,35.37,48.55,230617,,,D*71
$GPRMC,233832.600,A,4234.6311,N,08339.7008,W,35.18,48.80,230617,,,D*74
$GPRMC,233832.800,A,4234.6323,N,08339.6988,W,35.02,48.82,230617,,,D*72
$GPRMC,233833.000,A,4234.6335,N,08339.6969,W,34.04,49.97,230617,,,D*71
$GPRMC,233833.200,A,4234.6347,N,08339.6949,W,33.74,50.54,230617,,,D*73
$GPRMC,233833.400,A,4234.6359,N,08339.6929,W,33.46,51.08,230617,,,D*75
$GPRMC,233833.600,A,4234.6370,N,08339.6910,W,33.15,51.76,230617,,,D*79
$GPRMC,233833.800,A,4234.6381,N,08339.6890,W,32.95,52.55,230617,,,D*7B
$GPRMC,233834.000,A,4234.6392,N,08339.6870,W,32.60,53.45,230617,,,D*72
$GPRMC,233834.200,A,4234.6403,N,08339.6851,W,32.54,54.19,230617,,,D*75
$GPRMC,233834.400,A,4234.6413,N,08339.6831,W,32.38,55.28,230617,,,D*7D
$GPRMC,233834.600,A,4234.6423,N,08339.6811,W,32.32,56.34,230617,,,D*7A
$GPRMC,233834.800,A,4234.6433,N,08339.6790,W,32.26,56.84,230617,,,D*7D
$GPRMC,233835.000,A,4234.6442,N,08339.6770,W,32.20,57.42,230617,,,D*71
$GPRMC,233835.200,A,4234.6452,N,08339.6750,W,32.14,58.31,230617,,,D*7C
$GPRMC,233835.400,A,4234.6461,N,08339.6729,W,32.13,59.09,230617,,,D*79
$GPRMC,233835.600,A,4234.6470,N,08339.6708,W,32.07,59.67,230617,,,D*75
$GPRMC,233835.800,A,4234.6479,N,08339.6688,W,32.07,60.38,230617,,,D*7B
$GPRMC,233836.000,A,4234.6487,N,08339.6666,W,32.27,61.18,230617,,,D*70
$GPRMC,233836.200,A,4234.6496,N,08339.6645,W,32.26,62.32,230617,,,D*79
$GPRMC,233836.400,A,4234.6504,N,08339.6624,W,32.23,63.19,230617,,,D*7F
$GPRMC,233836.600,A,4234.6511,N,08339.6602,W,32.29,63.92,230617,,,D*74
$GPRMC,233836.800,A,4234.6519,N,08339.6580,W,32.29,64.58,230617,,,D*7A
$GPRMC,233837.000,A,4234.6527,N,08339.6558,W,32.34,65.02,230617,,,D*79
$GPRMC,233837.200,A,4234.6534,N,08339.6536,W,32.34,65.55,230617,,,D*73
$GPRMC,233837.400,A,4234.6541,N,08339.6514,W,32.34,66.33,230617,,,D*74
$GPRMC,233837.600,A,4234.6548,N,08339.6492,W,32.30,66.59,230617,,,D*78
$GPRMC,233837.800,A,4234.6556,N,08339.6469,W,32.27,66.65,230617,,,D*74
$GPRMC,233838.000,A,4234.6562,N,08339.6447,W,32.00,66.94,230617,,,D*73
$GPRMC,233838.200,A,4234.6569,N,08339.6425,W,31.84,67.44,230617,,,D*7D
$GPRMC,233838.400,A,4234.6576,N,08339.6403,W,31.82,67.27,230617,,,D*72
$GPRMC,233838.600,A,4234.6583,N,08339.6380,W,31.60,67.79,230617,,,D*71
$GPRMC,233838.800,A,4234.6589,N,08339.6358,W,31.44,68.27,230617,,,D*72
$GPRMC,233839.000,A,4234.6596,N,08339.6336,W,31.39,68.52,230617,,,D*75
$GPRMC,233839.200,A,4234.6602,N,08339.6314,W,31.21,69.13,230617,,,D*74
$GPRMC,233839.400,A,4234.6608,N,08339.6292,W,30.98,69.65,230617,,,D*75
$GPRMC,233839.600,A,4234.6614,N,08339.6270,W,30.79,70.36,230617,,,D*77
$GPRMC,233839.800,A,4234.6619,N,08339.6248,W,30.72,71.14,230617,,,D*75
$GPRMC,233840.000,A,4234.6625,N,08339.6226,W,30.66,71.71,230617,,,D*72
$GPRMC,233840.200,A,4234.6630,N,08339.6205,W,30.53,72.65,230617,,,D*75
$GPRMC,233840.400,A,4234.6635,N,08339.6183,W,30.43,73.47,230617,,,D*7B
$GPRMC,233840.600,A,4234.6639,N,08339.6162,W,29.53,74.02,230617,,,D*75
$GPRMC,233840.800,A,4234.6644,N,08339.6140,W,29.85,74.75,230617,,,D*7A
$GPRMC,233841.000,A,4234.6648,N,08339.6119,W,29.64,75.52,230617,,,D*78
$GPRMC,233841.200,A,4234.6651,N,08339.6098,W,29.43,76.43,230617,,,D*7C
$GPRMC,233841.400,A,4234.6655,N,08339.6078,W,28.11,76.80,230617,,,D*79
$GPRMC,233841.600,A,4234.6658,N,08339.6057,W,28.55,77.74,230617,,,D*71
$GPRMC,233841.800,A,4234.6661,N,08339.6037,W,27.31,78.20,230617,,,D*70
$GPRMC,233842.000,A,4234.6664,N,08339.6017,W,26.94,79.01,230617,,,D*70
$GPRMC,233842.200,A,4234.6667,N,08339.5997,W,26.58,79.85,230617,,,D*7F
$GPRMC,233842.400,A,4234.6669,N,08339.5978,W,26.22,80.37,230617,,,D*74
$GPRMC,233842.600,A,4234.6672,N,08339.5959,W,25.75,80.96,230617,,,D*75
$GPRMC,233842.800,A,4234.6674,N,08339.5939,W,25.36,81.39,230617,,,D*78
$GPRMC,233843.000,A,4234.6676,N,08339.5921,W,24.97,82.08,230617,,,D*71
$GPRMC,233843.200,A,4234.6678,N,08339.5902,W,24.49,82.81,230617,,,D*7E
$GPRMC,233843.400,A,4234.6679,N,08339.5884,W,24.02,83.10,230617,,,D*70
$GPRMC,233843.600,A,4234.6681,N,08339.5866,W,23.56,83.47,230617,,,D*7D
$GPRMC,233843.800,A,4234.6682,N,08339.5849,W,23.03,83.92,230617,,,D*75
$GPRMC,233844.000,A,4234.6683,N,08339.5832,W,22.55,84.49,230617,,,D*74
$GPRMC,233844.200,A,4234.6684,N,08339.5815,W,22.04,84.52,230617,,,D*7A
$GPRMC,233844.400,A,4234.6685,N,08339.5799,W,21.53,85.10,230617,,,D*70
$GPRMC,233844.600,A,4234.6686,N,08339.5783,W,20.93,85.73,230617,,,D*72
$GPRMC,233844.800,A,4234.6687,N,08339.5768,W,20.22,85.64,230617,,,D*74
$GPRMC,233845.000,A,4234.6688,N,08339.5753,W,19.50,86.39,230617,,,D*7E
$GPRMC,233845.200,A,4234.6688,N,08339.5739,W,18.49,86.17,230617,,,D*75
$GPRMC,233845.400,A,4234.6689,N,08339.5725,W,17.59,86.28,230617,,,D*7D
$GPRMC,233845.600,A,4234.6690,N,08339.5712,W,16.70,86.38,230617,,,D*78
$GPRMC,233845.800,A,4234.6690,N,08339.5700,W,15.72,86.23,230617,,,D*7E
$GPRMC,233846.000,A,4234.6690,N,08339.5688,W,14.89,86.68,230617,,,D*7E
$GPRMC,233846.200,A,4234.6690,N,08339.5678,W,14.03,86.94,230617,,,D*72
$GPRMC,233846.400,A,4234.6691,N,08339.5668,W,13.17,86.68,230617,,,D*75
$GPRMC,233846.600,A,4234.6691,N,08339.5658,W,12.30,87.22,230617,,,D*7F
$GPRMC,233846.800,A,4234.6691,N,08339.5649,W,11.57,87.79,230617,,,D*7D
$GPRMC,233847.000,A,4234.6692,N,08339.5641,W,10.79,87.81,230617,,,D*75
$GPRMC,233847.200,A,4234.6692,N,08339.5634,W,9.99,88.22,230617,,,D*45
$GPRMC,233847.400,A,4234.6692,N,08339.5626,W,9.24,88.79,230617,,,D*48
$GPRMC,233847.600,A,4234.6692,N,08339.5620,W,8.52,88.77,230617,,,D*42
$GPRMC,233847.800,A,4234.6692,N,08339.5614,W,7.64,89.41,230617,,,D*45
$GPRMC,233848.000,A,4234.6692,N,08339.5609,W,6.64,90.26,230617,,,D*46
$GPRMC,233848.200,A,4234.6692,N,08339.5605,W,5.76,89.86,230617,,,D*4A
$GPRMC,233848.400,A,4234.6692,N,08339.5601,W,4.99,90.10,230617,,,D*4F
$GPRMC,233848.600,A,4234.6691,N,08339.5597,W,4.78,90.79,230617,,,D*42
$GPRMC,233848.800,A,4234.6691,N,08339.5594,W,4.78,90.77,230617,,,D*41
$GPRMC,233849.000,A,4234.6691,N,08339.5591,W,4.75,91.35,230617,,,D*47
$GPRMC,233849.200,A,4234.6691,N,08339.5587,W,5.02,92.70,230617,,,D*41
$GPRMC,233849.400,A,4234.6691,N,08339.5583,W,5.77,94.22,230617,,,D*40
$GPRMC,233849.600,A,4234.6690,N,08339.5579,W,6.54,96.02,230617,,,D*44
$GPRMC,233849.800,A,4234.6690,N,08339.5574,W,7.41,99.18,230617,,,D*46
$GPRMC,233850.000,A,4234.6689,N,08339.5568,W,8.47,102.04,230617,,,D*74
$GPRMC,233850.200,A,4234.6687,N,08339.5562,W,9.42,105.42,230617,,,D*73
$GPRMC,233850.400,A,4234.6685,N,08339.5554,W,10.44,110.82,230617,,,D*44
$GPRMC,233850.600,A,4234.6683,N,08339.5547,W,11.40,115.76,230617,,,D*49
$GPRMC,233850.800,A,4234.6680,N,08339.5539,W,12.45,121.51,230617,,,D*49
$GPRMC,233851.000,A,4234.6675,N,08339.5532,W,13.23,127.42,230617,,,D*44
$GPRMC,233851.200,A,4234.6670,N,08339.5524,W,14.03,133.07,230617,,,D*45
$GPRMC,233851.400,A,4234.6664,N,08339.5517,W,14.85,139.04,230617,,,D*41
$GPRMC,233851.600,A,4234.6657,N,08339.5510,W,15.70,144.42,230617,,,D*47
$GPRMC,233851.800,A,4234.6650,N,08339.5503,W,16.48,149.11,230617,,,D*4F
$GPRMC,233852.000,A,4234.6641,N,08339.5497,W,17.30,153.33,230617,,,D*4D
$GPRMC,233852.200,A,4234.6631,N,08339.5492,W,18.01,157.06,230617,,,D*42
$GPRMC,233852.400,A,4234.6620,N,08339.5488,W,18.99,161.08,230617,,,D*45
$GPRMC,233852.600,A,4234.6609,N,08339.5484,W,19.83,164.54,230617,,,D*46
$GPRMC,233852.800,A,4234.6598,N,08339.5480,W,20.66,167.30,230617,,,D*47
$GPRMC,233853.000,A,4234.6586,N,08339.5477,W,21.56,168.94,230617,,,D*4A
$GPRMC,233853.200,A,4234.6573,N,08339.5474,W,22.48,170.86,230617,,,D*47
$GPRMC,233853.400,A,4234.6560,N,08339.5472,W,23.34,172.19,230617,,,D*4B
$GPRMC,233853.600,A,4234.6546,N,08339.5470,W,24.32,172.86,230617,,,D*48
$GPRMC,233853.800,A,4234.6532,N,08339.5468,W,25.41,173.83,230617,,,D*4D
$GPRMC,233854.000,A,4234.6517,N,08339.5466,W,26.29,174.59,230617,,,D*46
$GPRMC,233854.200,A,4234.6502,N,08339.5465,W,26.94,174.61,230617,,,D*4E
$GPRMC,233854.400,A,4234.6487,N,08339.5463,W,28.12,174.91,230617,,,D*4D
$GPRMC,233854.600,A,4234.6470,N,08339.5461,W,28.87,174.76,230617,,,D*40
$GPRMC,233854.800,A,4234.6454,N,08339.5459,W,29.57,174.57,230617,,,D*4C
$GPRMC,233855.000,A,4234.6437,N,08339.5457,W,30.52,174.52,230617,,,D*46
$GPRMC,233855.200,A,4234.6419,N,08339.5456,W,30.97,174.81,230617,,,D*4E
$GPRMC,233855.400,A,4234.6402,N,08339.5453,W,31.76,174.51,230617,,,D*44
$GPRMC,233855.600,A,4234.6384,N,08339.5451,W,32.37,175.04,230617,,,D*4A
$GPRMC,233855.800,A,4234.6365,N,08339.5449,W,33.02,175.23,230617,,,D*40
$GPRMC,233856.000,A,4234.6347,N,08339.5447,W,33.47,175.24,230617,,,D*43
$GPRMC,233856.200,A,4234.6328,N,08339.5445,W,33.54,175.28,230617,,,D*44
$GPRMC,233856.400,A,4234.6309,N,08339.5443,W,33.91,175.45,230617,,,D*45
$GPRMC,233856.600,A,4234.6290,N,08339.5441,W,34.12,175.83,230617,,,D*42
$GPRMC,233856.800,A,4234.6270,N,08339.5439,W,34.31,175.66,230617,,,D*47
$GPRMC,233857.000,A,4234.6251,N,08339.5437,W,34.46,176.33,230617,,,D*40
$GPRMC,233857.200,A,4234.6231,N,08339.5436,W,35.67,176.31,230617,,,D*45
$GPRMC,233857.400,A,4234.6211,N,08339.5434,W,35.30,176.27,230617,,,D*46
$GPRMC,233857.600,A,4234.6191,N,08339.5432,W,35.56,176.51,230617,,,D*48
$GPRMC,233857.800,A,4234.6171,N,08339.5431,W,36.55,176.90,230617,,,D*46
$GPRMC,233858.000,A,4234.6151,N,08339.5429,W,36.94,177.15,230617,,,D*4B
$GPRMC,233858.200,A,4234.6130,N,08339.5427,W,36.88,176.72,230617,,,D*4D
$GPRMC,233858.400,A,4234.6109,N,08339.5426,W,37.39,176.21,230617,,,D*4D
$GPRMC,233858.600,A,4234.6088,N,08339.5424,W,37.53,176.57,230617,,,D*48
$GPRMC,233858.800,A,4234.6067,N,08339.5422,W,37.92,176.50,230617,,,D*4B
$GPRMC,233859.000,A,4234.6046,N,08339.5420,W,37.95,176.92,230617,,,D*4A
$GPRMC,233859.200,A,4234.6025,N,08339.5419,W,38.40,177.07,230617,,,D*4D
$GPRMC,233859.400,A,4234.6004,N,08339.5418,W,38.36,177.04,230617,,,D*4B
$GPRMC,233859.600,A,4234.5982,N,08339.5416,W,38.33,177.35,230617,,,D*44
$GPRMC,233859.800,A,4234.5961,N,08339.5415,W,38.67,177.39,230617,,,D*49
$GPRMC,233900.000,A,4234.5939,N,08339.5413,W,38.65,177.71,230617,,,D*49
$GPRMC,233900.200,A,4234.5917,N,08339.5412,W,38.75,177.00,230617,,,D*41
$GPRMC,233900.400,A,4234.5895,N,08339.5409,W,39.63,176.32,230617,,,D*40
$GPRMC,233900.600,A,4234.5873,N,08339.5407,W,39.35,176.19,230617,,,D*4E
$GPRMC,233900.800,A,4234.5850,N,08339.5405,W,40.09,176.14,230617,,,D*4F
$GPRMC,233901.000,A,4234.5828,N,08339.5403,W,40.31,176.67,230617,,,D*40
$GPRMC,233901.200,A,4234.5805,N,08339.5402,W,40.51,176.40,230617,,,D*4F
$GPRMC,233901.400,A,4234.5783,N,08339.5399,W,40.86,175.79,230617,,,D*4E
$GPRMC,233901.600,A,4234.5760,N,08339.5397,W,40.91,175.93,230617,,,D*4D
$GPRMC,233901.800,A,4234.5737,N,08339.5395,W,41.36,176.44,230617,,,D*46
$GPRMC,233902.000,A,4234.5714,N,08339.5393,W,41.31,176.52,230617,,,D*4A
$GPRMC,233902.200,A,4234.5691,N,08339.5392,W,41.33,176.34,230617,,,D*47
$GPRMC,233902.400,A,4234.5668,N,08339.5389,W,41.49,175.80,230617,,,D*4C
$GPRMC,233902.600,A,4234.5644,N,08339.5387,W,41.58,175.27,230617,,,D*43
$GPRMC,233902.800,A,4234.5620,N,08339.5384,W,41.67,175.78,230617,,,D*4A
$GPRMC,233903.000,A,4234.5597,N,08339.5381,W,41.74,176.47,230617,,,D*44
$GPRMC,233903.200,A,4234.5573,N,08339.5379,W,41.84,176.29,230617,,,D*4C
$GPRMC,233903.400,A,4234.5549,N,08339.5377,W,43.07,176.31,230617,,,D*4D
$GPRMC,233903.600,A,4234.5525,N,08339.5374,W,43.29,175.87,230617,,,D*44
$GPRMC,233903.800,A,4234.5501,N,08339.5372,W,43.35,175.88,230617,,,D*48
$GPRMC,233904.000,A,4234.5477,N,08339.5370,W,43.41,176.42,230617,,,D*43
$GPRMC,233904.200,A,4234.5452,N,08339.5368,W,43.63,176.68,230617,,,D*47
$GPRMC,233904.400,A,4234.5428,N,08339.5366,W,43.69,176.59,230617,,,D*4A
$GPRMC,233904.600,A,4234.5404,N,08339.5364,W,44.05,176.27,230617,,,D*40
$GPRMC,233904.800,A,4234.5379,N,08339.5362,W,44.29,176.52,230617,,,D*49
$GPRMC,233905.000,A,4234.5354,N,08339.5360,W,44.34,176.16,230617,,,D*41
$GPRMC,233905.200,A,4234.5330,N,08339.5358,W,44.40,176.52,230617,,,D*49
$GPRMC,233905.400,A,4234.5305,N,08339.5356,W,44.73,176.94,230617,,,D*4D
$GPRMC,233905.600,A,4234.5280,N,08339.5354,W,44.73,177.15,230617,,,D*49
$GPRMC,233905.800,A,4234.5255,N,08339.5352,W,44.56,176.57,230617,,,D*49
$GPRMC,233906.000,A,4234.5230,N,08339.5350,W,44.61,176.35,230617,,,D*43
$GPRMC,233906.200,A,4234.5205,N,08339.5348,W,44.68,176.50,230617,,,D*44
$GPRMC,233906.400,A,4234.5180,N,08339.5345,W,44.76,176.23,230617,,,D*4A
$GPRMC,233906.600,A,4234.5155,N,08339.5343,W,44.79,176.31,230617,,,D*4A
$GPRMC,233906.800,A,4234.5130,N,08339.5340,W,45.02,176.21,230617,,,D*48
$GPRMC,233907.000,A,4234.5105,N,08339.5338,W,44.77,176.71,230617,,,D*4E
$GPRMC,233907.200,A,4234.5080,N,08339.5337,W,44.77,177.05,230617,,,D*4D
$GPRMC,233907.400,A,4234.5055,N,08339.5334,W,45.01,176.16,230617,,,D*43
$GPRMC,233907.600,A,4234.5030,N,08339.5331,W,44.68,176.29,230617,,,D*45
$GPRMC,233907.800,A,4234.5005,N,08339.5329,W,44.74,176.54,230617,,,D*43
$GPRMC,233908.000,A,4234.4980,N,08339.5327,W,45.22,176.79,230617,,,D*42
$GPRMC,233908.200,A,4234.4955,N,08339.5325,W,44.54,176.39,230617,,,D*4E
$GPRMC,233908.400,A,4234.4930,N,08339.5323,W,44.79,176.21,230617,,,D*4B
$GPRMC,233908.600,A,4234.4905,N,08339.5321,W,44.78,176.57,230617,,,D*4D
$GPRMC,233908.800,A,4234.4880,N,08339.5318,W,44.84,175.97,230617,,,D*49
$GPRMC,233909.000,A,4234.4855,N,08339.5316,W,44.58,176.07,230617,,,D*4D
$GPRMC,233909.200,A,4234.4831,N,08339.5314,W,44.75,176.36,230617,,,D*42
$GPRMC,233909.400,A,4234.4806,N,08339.5311,W,44.82,176.23,230617,,,D*49
$GPRMC,233909.600,A,4234.4781,N,08339.5309,W,44.63,176.18,230617,,,D*45
$GPRMC,233909.800,A,4234.4756,N,08339.5306,W,44.37,176.47,230617,,,D*45
$GPRMC,233910.000,A,4234.4731,N,08339.5304,W,44.36,175.96,230617,,,D*48
$GPRMC,233910.200,A,4234.4706,N,08339.5301,W,44.42,175.62,230617,,,D*43
$GPRMC,233910.400,A,4234.4682,N,08339.5299,W,44.17,176.17,230617,,,D*49
$GPRMC,233910.600,A,4234.4657,N,08339.5296,W,44.21,175.90,230617,,,D*45
$GPRMC,233910.800,A,4234.4632,N,08339.5293,W,44.22,176.06,230617,,,D*42
$GPRMC,233911.000,A,4234.4607,N,08339.5290,W,44.24,176.05,230617,,,D*4B
$GPRMC,233911.200,A,4234.4583,N,08339.5288,W,44.20,175.92,230617,,,D*46
$GPRMC,233911.400,A,4234.4558,N,08339.5286,W,44.37,176.36,230617,,,D*43
$GPRMC,233911.600,A,4234.4533,N,08339.5283,W,44.33,175.92,230617,,,D*40
